City_ID,City,Lat,Lng,Max Temp,Humidity,Cloudiness,Wind Speed,Country,Date
0,puerto san carlos,-12.6608,-63.55,302.52,73,96,1.39,BO,1701711539
1,papatowai,-46.5619,169.4708,279.86,74,18,1.67,NZ,1701711540
2,lihue,21.977,-159.3688,294.84,86,75,2.06,US,1701711540
3,edinburgh of the seven seas,-37.0676,-12.3108,289.48,94,51,8.79,SH,1701711541
4,tiksi,71.6366,128.8685,240.52,96,97,3.23,RU,1701711542
5,adamstown,-25.0667,-130.1002,295.59,79,38,5.8,PN,1701711543
6,port-aux-francais,-49.3498,70.22,277.27,72,37,12.25,FR,1701711544
7,longyearbyen,78.2232,15.6464,268.3,74,75,9.26,NO,1701711545
8,waitangi,-35.2705,174.0805,291.24,92,100,1.77,NZ,1701711545
9,belle chasse,29.8549,-89.9906,291.94,55,40,4.12,US,1701711546
10,bilibino,68.055,166.4449,247.91,99,100,1.01,RU,1701711547
11,puerto armuelles,8.2726,-82.8604,300.01,68,93,1.34,PA,1701711548
12,khorixas,-20.3738,14.9604,299.25,51,100,3.88,NA,1701711548
13,'ohonua,-21.3413,-174.9561,298.19,81,18,7.1,TO,1701711549
14,itoman,26.106,127.6861,293.94,88,98,5.66,JP,1701711550
15,breves,-1.6804,-50.4791,305.37,50,100,2.54,BR,1701711550
16,tan-tan,28.4376,-11.0987,296.1,56,0,5.66,MA,1701711551
17,waimea,20.0205,-155.6639,291.8,86,10,3.13,US,1701711552
18,kapuskasing,49.4167,-82.4333,262.15,67,20,1.03,CA,1701711552
19,klyuchi,56.3182,160.8422,260.29,78,87,1.44,RU,1701711553
20,ushuaia,-54.8061,-68.3185,284.98,71,75,7.72,AR,1701711554
21,grytviken,-54.2806,-36.5098,274.7,64,47,5.74,GS,1701711554
22,west island,-12.1459,96.8423,299.18,78,77,4.63,AU,1701711555
23,thompson,55.7433,-97.8635,267.25,93,100,2.06,CA,1701711556
24,kodiak,57.79,-152.4072,278.88,87,100,9.26,US,1701711556
25,bethel,60.7922,-161.7558,265.34,93,100,4.12,US,1701711557
26,udachny,66.4118,112.2517,233.59,81,99,1.79,RU,1701711558
27,dongola,19.1729,30.4732,298.88,27,5,4.89,SD,1701711558
28,gobabis,-22.4495,18.9725,300.44,38,91,8.79,NA,1701711559
29,prado,41.9204,-5.4204,281.52,85,55,4.0,ES,1701711560
30,cascais,38.7224,-9.3969,287.3,81,20,3.6,PT,1701711560
31,fort st. john,56.2524,-120.8469,276.09,65,75,7.72,CA,1701711561
32,puerto natales,-51.7262,-72.506,289.47,51,75,11.32,CL,1701711562
33,taiohae,-8.8991,-140.1559,297.0,76,68,8.84,FR,1701711563
34,monchegorsk,67.9399,32.9317,262.61,97,100,0.06,RU,1701711564
35,bredasdorp,-34.5331,20.0428,290.1,70,52,2.95,ZA,1701711564
36,blackmans bay,-43.0047,147.318,285.51,89,48,1.26,AU,1701711565
37,adrar,27.8734,-0.2875,294.27,18,0,4.12,DZ,1701711565
38,wailua homesteads,22.0581,-159.3691,294.48,86,75,2.06,US,1701711566
39,magadan,59.5605,150.7989,247.19,92,88,3.04,RU,1701711567
40,puerto ayora,-0.7472,-90.3134,299.93,86,82,2.68,EC,1701711567
41,invercargill,-46.4088,168.346,277.21,88,6,1.53,NZ,1701711370
42,puerto carreno,6.188,-67.4895,306.14,52,20,6.17,CO,1701711568
43,cargados carajos,-16.2412,59.5915,300.08,83,1,5.04,MU,1701711569
44,san felice circeo,41.2326,13.0894,282.06,61,100,1.36,IT,1701711570
45,baiti,13.745,-14.7482,308.27,13,15,2.19,SN,1701711570
46,muisne,0.6104,-80.0186,299.98,77,96,3.93,EC,1701711571
47,jorpeland,59.0209,6.0394,272.31,76,10,2.85,NO,1701711571
48,port elizabeth,-33.9617,25.6208,292.21,77,0,6.17,ZA,1701711572
49,nantucket,41.3157,-70.009,283.91,72,0,5.66,US,1701711583
50,yuzhno-kurilsk,44.0271,145.8614,276.98,68,18,4.11,RU,1701711583
51,ylitornio,66.3164,23.6713,262.53,98,100,0.51,FI,1701711584
52,whitehorse,60.7216,-135.0549,263.44,85,20,5.14,CA,1701711585
53,banes,20.9617,-75.7229,301.43,60,49,4.88,CU,1701711585
54,hithadhoo,1.7959,73.3876,301.26,74,58,3.04,MV,1701711586
55,brookings,44.3115,-96.7984,271.15,100,100,4.12,US,1701711587
56,sicuani,-14.2729,-71.2265,292.1,36,60,1.96,PE,1701711587
57,iqaluit,63.7494,-68.5219,268.66,79,75,2.06,CA,1701711588
58,island harbour,49.6,-54.3,273.32,84,100,7.8,CA,1701711589
59,galliano,44.0161,11.2913,277.29,86,100,1.16,IT,1701711589
60,ilulissat,69.2197,-51.0986,264.31,73,20,0.0,GL,1701711590
61,new norfolk,-42.7802,147.0615,286.22,96,80,1.33,AU,1701711591
62,punta arenas,-53.1626,-70.9078,286.2,62,0,11.83,CL,1701711591
63,quellon,-43.12,-73.6203,286.67,70,19,5.64,CL,1701711592
64,yellowknife,62.4541,-114.3774,259.25,85,100,4.12,CA,1701711593
65,afaahiti,-17.739,-149.29,301.66,84,88,8.55,FR,1701711593
66,aitape,-3.151,142.3594,298.04,94,100,3.12,PG,1701711594
67,baker city,44.7749,-117.8344,275.11,100,100,2.06,US,1701711595
68,victorica,-36.2165,-65.437,295.97,31,41,9.82,AR,1701711595
69,uturoa,-16.7437,-151.4594,297.92,79,97,9.34,FR,1701711596
70,petropavlovsk-kamchatsky,53.02,158.6471,266.35,76,80,3.58,RU,1701711597
71,sofifi,0.7348,127.5761,299.72,84,81,1.07,ID,1701711597
72,college,45.3266,-75.8386,272.53,94,100,1.54,CA,1701711598
73,nova sintra,14.8711,-24.6956,296.02,76,10,5.91,CV,1701711599
74,kismayo,-0.3602,42.5409,300.83,81,88,5.3,SO,1701711599
75,sao gabriel da cachoeira,-0.125,-67.0814,304.91,66,40,2.06,BR,1701711600
76,praia da vitoria,38.7392,-27.1563,289.55,55,20,2.48,PT,1701711601
77,fuvahmulah,-0.2948,73.4241,301.17,78,68,3.26,MV,1701711602
78,hsinchu,24.8065,120.9706,292.01,97,100,0.89,TW,1701711334
79,hasaki,35.753,140.8201,276.37,46,52,1.99,JP,1701711603
80,agapovka,53.2969,59.1349,275.71,99,100,6.04,RU,1701711604
81,al kharijah,15.3595,44.2167,285.87,42,26,2.85,YE,1701711605
82,aripuana,-10.1758,-59.444,306.1,43,95,1.99,BR,1701711606
83,ribeira grande,37.8225,-25.5195,290.34,63,40,3.09,PT,1701711606
84,klaksvik,62.2266,-6.5853,275.73,75,99,8.69,FO,1701711607
85,aberdeen,57.1482,-2.0928,278.0,84,75,4.12,GB,1701711608
86,al ghayzah,13.5591,44.0257,288.25,77,29,4.24,YE,1701711608
87,loiza,18.4327,-65.8798,303.47,63,40,7.72,US,1701711609
88,wad medani,14.3966,33.531,303.5,25,4,4.37,SD,1701711610
89,kolonia,50.9384,6.96,274.45,84,100,4.63,DE,1701711610
90,el nido,11.18,119.3905,300.71,79,22,3.22,PH,1701711611
91,mount pearl,47.5189,-52.8145,273.21,95,100,5.14,CA,1701711612
92,badger,42.6144,-94.1462,271.15,93,100,5.66,US,1701711612
93,toliara,-23.3542,43.6697,297.13,82,0,1.44,MG,1701711613
94,saint-philippe,45.3584,-73.479,270.71,96,100,4.63,CA,1701711614
95,isangel,-19.5411,169.2811,297.48,87,76,2.51,VU,1701711615
96,jamestown,-15.9277,-5.7161,294.44,82,83,6.75,SH,1701711625
97,okondja,-0.6555,13.6827,296.08,91,70,1.19,GA,1701711626
98,east london,-33.0192,27.8999,291.79,82,100,3.6,ZA,1701711627
99,lebu,-37.61,-73.6559,287.91,68,0,8.53,CL,1701711627
100,kingston,17.9712,-76.7928,304.05,58,40,1.54,JM,1701711628
101,albany,42.6512,-73.755,280.92,88,75,2.06,US,1701711629
102,tolanaro,-25.0297,46.9904,297.03,73,40,7.2,MG,1701711630
103,selfoss,63.9368,-21.0035,271.47,70,100,3.48,IS,1701711630
104,shimoda,34.6795,138.9454,279.8,66,84,1.87,JP,1701711631
105,fonte boa,-2.55,-66.9132,300.63,82,98,1.33,BR,1701711632
106,filey,54.2097,-0.2888,279.03,92,100,4.02,GB,1701711633
107,hermanus,-34.4175,19.2361,290.81,74,34,3.01,ZA,1701711633
108,pangkalpinang,-2.1207,106.1135,297.83,91,100,0.75,ID,1701711634
109,carlos chagas,-21.7444,-43.3909,301.13,68,77,3.68,BR,1701711635
110,vilyuchinsk,52.9318,158.4054,266.46,86,77,1.68,RU,1701711635
111,weno,7.4401,151.857,300.62,74,75,2.57,FM,1701711636
112,anadyr,64.7317,177.5061,253.08,84,20,6.0,RU,1701711636
113,howrah,22.5736,88.3251,297.12,73,75,0.0,IN,1701711637
114,zouerate,22.7374,-12.4729,299.02,26,67,2.74,MR,1701711638
115,kerikeri,-35.2273,173.9491,290.75,92,100,1.53,NZ,1701711638
116,chonchi,-42.624,-73.7724,290.94,52,51,2.51,CL,1701711639
117,uray,60.1291,64.8036,256.93,94,100,5.36,RU,1701711640
118,margaret river,-33.9532,115.0769,287.19,78,100,2.52,AU,1701711640
119,san patricio,27.9695,-97.7732,294.17,31,83,3.12,US,1701711641
120,idri,27.4457,13.0491,289.62,48,0,3.69,LY,1701711642
121,qaqortoq,60.7182,-46.0385,268.62,71,100,4.97,GL,1701711642
122,port lincoln,-34.7212,135.8592,290.57,83,86,3.27,AU,1701711643
123,khandyga,62.6478,135.5751,223.58,100,88,0.31,RU,1701711644
124,ar rahad,14.5686,43.749,292.22,62,8,0.44,YE,1701711644
125,hadibu,12.6512,54.0237,298.65,67,10,7.93,YE,1701711646
126,burdell,-19.2302,146.6975,299.12,83,40,2.57,AU,1701711646
127,isafjordur,66.0727,-23.1194,272.2,74,0,1.03,IS,1701711647
128,hawaiian paradise park,19.585,-154.9731,293.11,93,0,3.6,US,1701711648
129,luderitz,-26.65,15.1573,292.86,56,0,12.69,NA,1701711648
130,sayan,21.3182,72.8857,297.05,68,17,4.8,IN,1701711649
131,jalai nur,49.4577,117.7123,265.25,82,99,7.05,CN,1701711650
132,suihua,46.652,126.9607,258.99,100,83,3.39,CN,1701711650
133,ust-nera,64.5664,143.2378,228.69,99,93,2.11,RU,1701711651
134,santa ana,33.7495,-117.8732,290.85,53,75,1.54,US,1701711652
135,recreo,-29.2815,-65.0624,287.34,72,100,3.89,AR,1701711652
136,taltal,-25.4078,-70.4858,292.94,65,10,3.2,CL,1701711653
137,ancud,-41.8682,-73.8287,288.97,66,2,2.74,CL,1701711654
138,muscat,23.6152,58.5912,297.17,66,22,1.62,OM,1701711655
139,bowen,40.2334,-91.0626,277.68,60,14,2.38,US,1701711655
140,saynshand,44.8884,110.1431,265.95,82,7,4.19,MN,1701711656
141,tarawa,36.4768,44.4778,282.94,32,86,0.69,IQ,1701711657
142,gadzhiyevo,69.2504,33.3153,264.07,92,99,1.58,RU,1701711657
143,kenai,60.5544,-151.2583,270.9,71,100,8.23,US,1701711658
144,pagalungan,7.0599,124.6992,296.74,93,73,0.69,PH,1701711669
145,thinadhoo,0.5326,72.9971,301.17,77,81,2.44,MV,1701711669
146,kingscliff,-28.2567,153.5761,294.88,94,75,2.06,AU,1701711670
147,nadym,65.5336,72.5114,238.65,100,100,2.08,RU,1701711671
148,las lomitas,-24.7075,-60.5943,291.6,97,100,3.86,AR,1701711671
149,happy valley-goose bay,53.2964,-60.3112,262.44,79,100,0.0,CA,1701711672
150,morondava,-20.2951,44.2786,300.2,79,12,4.88,MG,1701711673
151,tazovsky,67.4735,78.7149,237.24,100,10,2.13,RU,1701711673
152,flin flon,54.7698,-101.879,264.88,93,100,1.54,CA,1701711674
153,saipan,15.191,145.7467,298.26,83,20,6.69,US,1701711675
154,broken hill,-31.965,141.4511,299.86,23,1,5.02,AU,1701711676
155,hammerfest,70.6413,23.8361,269.59,80,75,1.03,NO,1701711676
156,standerton,-26.9433,29.2436,296.89,27,87,1.38,ZA,1701711677
157,gizo,29.9871,31.2118,294.57,48,0,2.94,EG,1701711677
158,taro,-8.3862,115.28,295.85,96,100,0.94,ID,1701711678
159,shingu,33.7241,135.993,281.67,59,100,2.25,JP,1701711679
160,codo,41.3334,-0.6994,285.22,58,15,7.12,ES,1701711679
161,shanhaiguan,39.9988,119.7564,275.22,43,4,1.66,CN,1701711680
162,north bend,47.4958,-121.7849,280.84,94,100,4.92,US,1701711681
163,san rafael del sur,11.8465,-86.4389,300.72,56,15,6.74,NI,1701711681
164,arua,44.0604,-0.3509,283.06,94,100,4.39,FR,1701711682
165,sola,37.5667,126.9783,275.43,65,75,3.09,KR,1701711683
166,kitgum,3.2965,32.8818,299.24,53,95,1.97,UG,1701711683
167,behshahr,36.6912,53.5434,282.11,39,0,1.72,IR,1701711684
168,musay'id,34.8609,37.3343,287.87,54,34,4.57,SY,1701711685
169,arno,7.063,171.5553,301.07,78,75,2.06,MH,1701711686
170,mossel bay,-34.1832,22.1536,292.21,71,27,4.11,ZA,1701711686
171,am djarass,16.0663,22.835,294.58,13,69,5.0,TD,1701711687
172,olonkinbyen,70.9224,-8.716,271.66,76,100,3.85,NO,1701711688
173,port mathurin,-19.6808,63.4221,299.3,82,2,4.56,MU,1701711689
174,port macquarie,-31.4299,152.9104,288.85,92,23,1.11,AU,1701711690
175,rabo de peixe,37.8083,-25.5851,290.19,63,40,3.09,PT,1701711690
176,bandrele,-12.9123,45.1939,299.14,89,0,1.03,FR,1701711691
177,amarillo,35.2072,-101.8338,283.24,28,0,6.17,US,1701711691
178,karsun,54.1971,46.9793,263.31,90,100,6.32,RU,1701711692
179,guadalupe y calvo,26.0915,-106.9617,290.61,14,0,1.31,MX,1701711693
180,constantia,44.1767,28.6508,273.62,58,35,1.21,RO,1701711693
181,santana,-12.9792,-44.0506,307.29,31,99,1.65,BR,1701711694
182,tank,32.2097,70.3881,290.85,31,0,0.74,PK,1701711695
183,okha,53.5891,142.9498,263.3,87,95,4.7,RU,1701711695
184,virginia beach,36.853,-75.9774,288.35,74,75,3.6,US,1701711696
185,chegdomyn,51.1345,133.0356,255.55,99,95,0.81,RU,1701711697
186,dudinka,69.4061,86.1751,238.55,96,77,2.68,RU,1701711697
187,dolores,38.1392,-0.7693,285.83,62,100,0.45,ES,1701711698
188,vila velha,-20.3297,-40.292,304.23,66,20,9.26,BR,1701711699
189,sitka,57.0525,-135.3376,282.05,61,100,8.23,US,1701711699
190,castillos,-34.2003,-53.8608,291.33,46,0,4.99,UY,1701711710
191,guarapari,-20.6719,-40.4985,304.22,66,24,8.3,BR,1701711711
192,amarnath,33.8011,74.2602,281.66,37,0,3.31,IN,1701711711
193,adoni,39.9135,9.1858,282.3,86,100,1.48,IT,1701711712
194,benghazi,32.1061,20.0667,292.65,58,18,5.01,LY,1701711713
195,leshan,29.5851,103.7478,285.32,78,53,0.4,CN,1701711713
196,belmonte,39.5593,-2.7038,280.67,76,78,3.68,ES,1701711714
197,na mom,6.9585,100.5564,298.06,100,40,2.06,TH,1701711715
198,cartagena del chaira,1.3345,-74.8414,307.7,36,63,2.47,CO,1701711715
199,senanga,-16.1041,23.3018,299.36,50,54,3.9,ZM,1701711716
200,bunyan,-36.1657,149.1535,285.38,83,49,1.53,AU,1701711716
201,hanceville,34.0623,-86.7627,288.9,42,2,6.76,US,1701711717
202,carupano,10.6494,-63.2542,301.78,66,18,5.77,VE,1701711718
203,tindouf,27.6718,-8.1397,298.42,25,0,4.12,DZ,1701711718
204,carnarvon,-24.8826,113.6576,296.84,76,3,10.1,AU,1701711719
205,patong,7.8994,98.3086,300.18,83,100,5.9,TH,1701711720
206,arawa,-6.2263,155.5651,298.86,89,100,2.5,PG,1701711721
207,okhotsk,59.3644,143.2411,239.64,83,60,5.75,RU,1701711722
208,yeniseysk,58.4532,92.1748,251.14,88,100,5.12,RU,1701711723
209,vingt cinq,-10.3887,56.6177,301.72,76,34,5.13,MU,1701711724
210,west fargo,46.875,-96.9004,271.15,74,100,3.6,US,1701711725
211,cabo san lucas,22.8939,-109.9201,301.7,48,0,1.86,MX,1701711725
212,souillac,44.898,1.4694,283.21,94,88,2.76,FR,1701711726
213,keelung,25.1322,121.742,292.2,90,100,4.14,TW,1701711577
214,datong,40.092,113.2951,271.71,45,0,2.28,CN,1701711727
215,enewetak,11.3409,162.3245,300.64,73,100,8.22,MH,1701711728
216,pisco,-13.71,-76.203,294.09,78,75,4.12,PE,1701711728
217,beni,0.4761,29.1893,291.97,99,94,0.62,CD,1701711730
218,antofagasta,-23.6464,-70.398,293.81,65,12,4.2,CL,1701711730
219,hailar,49.2389,120.0229,266.06,73,100,6.84,CN,1701711731
220,carutapera,-1.2017,-46.0206,303.73,61,78,3.53,BR,1701711732
221,porto novo,6.4991,2.6253,303.03,76,1,3.43,BJ,1701711732
222,lata,18.3983,76.5621,293.64,76,100,3.6,IN,1701711733
223,orlov,58.5363,48.8851,264.35,93,100,3.13,RU,1701711734
224,de aar,-30.6506,24.0075,299.95,7,0,6.57,ZA,1701711734
225,sao vicente,-23.9604,-46.3847,302.12,55,100,2.06,BR,1701711735
226,montepuez,-13.1253,39.0017,297.21,77,94,2.87,MZ,1701711736
227,el alto,-16.5048,-68.1624,288.33,51,75,3.09,BO,1701711737
228,nikolayevsk-on-amure,53.1387,140.7249,256.63,99,74,1.52,RU,1701711737
229,usogorsk,63.4295,48.7062,257.95,97,99,1.84,RU,1701711738
230,kaiapoi,-43.3832,172.6522,283.71,87,100,2.06,NZ,1701711738
231,seguin,29.5688,-97.9647,291.62,35,0,4.12,US,1701711739
232,badiyah,22.4501,58.8003,295.54,49,1,0.49,OM,1701711740
233,cuatro cienegas de carranza,26.9865,-102.0633,294.53,19,0,1.54,MX,1701711741
234,stanley,-51.6951,-57.8492,284.04,58,20,10.29,FK,1701711741
235,aldinga beach,-35.2793,138.4604,293.79,73,63,3.23,AU,1701711752
236,vadso,70.2267,29.7828,267.13,93,75,3.09,NO,1701711752
237,cidreira,-30.1657,-50.2183,291.96,86,100,6.68,BR,1701711753
238,kailua-kona,19.6419,-155.9969,296.06,80,20,2.06,US,1701711754
239,byron bay,-28.6483,153.6178,292.82,85,48,2.43,AU,1701711754
240,upington,-28.4563,21.2419,306.4,12,0,4.12,ZA,1701711755
241,sarandi del yi,-33.3442,-55.6313,295.74,37,0,6.73,UY,1701711756
242,prince rupert,54.3127,-130.3255,280.33,84,100,12.86,CA,1701711756
243,avarua,-21.2075,-159.7708,298.14,78,46,3.6,CK,1701711757
244,tambura,15.0987,74.9296,295.1,72,99,2.8,IN,1701711758
245,karamay,45.5778,84.8867,274.98,67,41,4.84,CN,1701711758
246,la ronge,55.1005,-105.29,262.25,85,20,2.57,CA,1701711759
247,rio branco,-9.9765,-67.8221,305.45,62,40,4.63,BR,1701711760
248,daru,-9.0699,143.21,299.9,85,79,5.24,PG,1701711760
249,kone,-21.0608,164.8619,296.33,85,82,1.59,FR,1701711761
250,rongelap,11.1629,166.8943,300.88,72,86,9.56,MH,1701711762
251,uliastay,47.7416,96.8475,255.81,92,34,2.39,MN,1701711762
252,mafeteng,-29.8224,27.2388,296.1,30,98,3.84,LS,1701711763
253,an nuhud,12.6922,28.4221,298.21,21,75,5.11,SD,1701711763
254,vila franca do campo,37.7172,-25.4335,290.38,76,92,2.2,PT,1701711764
255,horta,38.5368,-28.6301,289.96,64,40,5.81,PT,1701711765
256,prince george,53.9129,-122.7454,275.44,80,75,5.14,CA,1701711765
257,xai-xai,-25.0445,33.6407,295.92,76,0,5.83,MZ,1701711766
258,ijuw,-0.5152,166.9573,300.91,76,100,7.55,NR,1701711767
259,yorkton,51.212,-102.4612,262.05,92,0,1.54,CA,1701711767
260,pointe-noire,-4.7975,11.8503,300.16,79,95,2.59,CG,1701711768
261,stjordalshalsen,63.4712,10.9189,261.14,85,75,5.14,NO,1701711769
262,mar del plata,-37.9977,-57.5483,289.41,58,0,6.17,AR,1701711770
263,alotau,-10.3061,150.4464,297.14,94,80,1.88,PG,1701711770
264,vorgashor,67.5812,63.7837,245.8,93,5,2.84,RU,1701711771
265,terrace,54.5173,-128.5995,276.1,93,100,1.03,CA,1701711772
266,aasiaat,68.7096,-52.8513,260.98,88,100,2.14,GL,1701711773
267,pemangkat,1.1561,108.9713,297.52,88,100,3.19,ID,1701711774
268,trstena,49.045,18.6351,266.39,71,98,2.06,SK,1701711774
269,villa rica,33.7321,-84.9191,290.24,51,20,2.24,US,1701711775
270,samarinda,-0.5018,117.1393,296.5,98,50,0.94,ID,1701711776
271,kosh-agach,49.9947,88.6628,254.42,85,38,0.89,RU,1701711777
272,masterton,-40.9496,175.6594,285.29,98,100,1.23,NZ,1701711777
273,cuito,-12.3831,16.9425,288.99,96,100,0.46,AO,1701711778
274,sungailiat,-1.8477,106.1192,299.52,83,100,1.24,ID,1701711779
275,rundu,-17.9137,19.7673,302.56,24,18,2.11,NA,1701711779
276,maughold,54.2987,-4.3183,278.72,95,100,11.31,IM,1701711780
277,merlo,-34.6605,-58.7322,293.4,55,84,4.98,AR,1701711781
278,sampit,-2.5389,112.9494,296.76,98,97,0.36,ID,1701711782
279,saint-felicien,45.0867,4.6278,277.75,97,100,3.24,FR,1701711782
280,flying fish cove,-10.4213,105.6744,298.39,88,75,3.6,AU,1701711793
281,yamada,39.4677,141.9491,277.22,82,14,2.73,JP,1701711794
282,itaituba,-4.2625,-55.9878,306.18,58,40,3.6,BR,1701711794
283,es castell,39.8799,4.2905,287.63,62,20,5.66,ES,1701711795
284,gillette,44.2906,-105.5019,273.7,86,100,6.69,US,1701711795
285,floresta,37.9874,14.9097,278.19,74,30,2.18,IT,1701711796
286,port douglas,-16.4846,145.4636,298.87,87,90,2.36,AU,1701711797
287,casper,42.8501,-106.3251,278.92,67,100,7.2,US,1701711798
288,zaozersk,69.4009,32.4413,263.53,94,100,1.8,RU,1701711798
289,taroa,12.43,-71.5763,301.23,77,55,10.88,CO,1701711799
290,acarau,-2.887,-40.1195,303.77,62,80,7.88,BR,1701711800
291,san antonio de pale,-1.4046,5.6326,299.99,80,83,2.68,GQ,1701711801
292,thunder bay,48.4064,-89.2598,273.18,74,100,2.57,CA,1701711802
293,winchester,51.0613,-1.3132,280.63,97,75,3.6,GB,1701711802
294,colonia,50.9384,6.96,274.45,84,100,4.63,DE,1701711610
295,howard springs,-12.497,131.047,298.46,96,100,0.93,AU,1701711804
296,ola,35.0323,-93.2232,284.14,50,2,3.82,US,1701711805
297,pagar alam,-4.021,103.2502,293.86,97,100,0.76,ID,1701711805
298,port glaud,-4.6641,55.4178,301.02,78,40,2.06,SC,1701711806
299,walvis bay,-22.9543,14.5075,294.68,60,0,4.12,NA,1701711807
300,chernyshevskiy,63.0156,112.4642,233.16,99,86,2.13,RU,1701711807
301,saldanha,-32.9978,17.9456,293.3,75,2,9.1,ZA,1701711808
302,atherton,37.4538,-122.2058,285.46,92,100,1.54,US,1701711809
303,nahuala,14.8432,-91.3179,291.06,65,40,6.17,GT,1701711809
304,georgetown,6.8137,-58.1624,302.14,74,75,4.12,GY,1701711810
305,pahrump,36.2083,-115.9839,284.23,45,100,1.34,US,1701711810
306,oamaru,-45.0998,170.9684,282.8,88,98,4.6,NZ,1701711811
307,lahat,-3.7833,103.5452,296.78,95,100,0.62,ID,1701711812
308,kruisfontein,-34.012,24.7433,291.48,81,14,4.52,ZA,1701711813
309,raja,15.2992,-61.3873,302.51,61,75,3.6,DM,1701711813
310,guiria,10.5879,-62.2999,301.28,73,3,4.51,VE,1701711814
311,veraval,20.9101,70.3653,298.48,50,6,6.31,IN,1701711814
312,basco,40.3278,-91.2001,276.43,60,13,2.53,US,1701711815
313,keflavik,63.9998,-22.5565,276.39,81,100,9.77,IS,1701711816
314,victoria,48.4283,-123.365,280.39,90,100,10.8,CA,1701711817
315,langgons,50.4918,8.6291,271.29,91,100,3.67,DE,1701711817
316,pandaria,22.22,81.4106,294.33,64,100,0.89,IN,1701711818
317,nanao,37.0521,136.9465,279.04,75,43,1.38,JP,1701711819
318,kapa'a,-33.929,18.4174,292.49,49,20,8.75,ZA,1701711322
319,tura,47.39,0.6889,283.32,81,100,7.72,FR,1701711820
320,mopti,14.4877,-4.1892,305.17,22,0,3.09,ML,1701711820
321,xindian,24.9674,121.5419,291.98,89,75,0.51,TW,1701711821
322,funadhoo,6.1542,73.289,301.78,76,20,4.76,MV,1701711822
323,karratha,-20.737,116.8479,298.47,80,1,4.36,AU,1701711822
324,formosa do rio preto,-11.0415,-45.1904,305.33,37,100,2.64,BR,1701711823
325,santa elena de uairen,4.5959,-61.111,304.51,32,8,2.93,VE,1701711823
326,ketchikan,55.3431,-131.6467,280.39,81,100,9.77,US,1701711824
327,takamaka,-21.3223,55.8001,295.66,71,44,3.21,FR,1701711835
328,dinkelsbuhl,49.0692,10.3223,268.82,89,100,2.95,DE,1701711835
329,brisas de zicatela,15.8367,-97.0429,302.44,70,100,3.09,MX,1701711836
330,hassi messaoud,31.6957,6.0604,289.97,55,40,2.06,DZ,1701711837
331,dillon,45.2141,-112.6346,279.28,61,40,9.26,US,1701711837
332,susuman,62.7797,148.1536,232.0,100,100,0.93,RU,1701711838
333,san sebastian de la gomera,28.091,-17.111,294.35,68,40,1.03,ES,1701711839
334,tanguieta,10.6301,1.2706,301.99,9,97,1.47,BJ,1701711839
335,mount isa,-20.729,139.4932,296.07,53,1,2.06,AU,1701711840
336,masuguru,-11.3808,38.4577,297.53,92,96,2.73,TZ,1701711841
337,launceston,-41.4341,147.1373,284.26,100,59,1.54,AU,1701711841
338,abalak,15.4637,6.2813,299.75,16,100,2.11,NE,1701711842
339,kill devil hills,36.0321,-75.6776,288.09,71,0,2.57,US,1701711843
340,vernon,49.0918,1.4887,282.59,89,100,8.36,FR,1701711844
341,soledade,-28.8272,-52.5109,288.9,95,100,4.96,BR,1701711844
342,praia,14.9163,-23.5095,301.47,57,20,9.26,CV,1701711845
343,ghadamis,30.1258,9.4901,288.13,48,16,3.71,LY,1701711846
344,port alfred,-33.5982,26.8915,291.51,80,36,1.34,ZA,1701711846
345,kavaratti,10.5672,72.6395,301.94,73,88,4.81,IN,1701711847
346,bethanie,-26.5014,17.1581,301.33,12,21,8.67,NA,1701711848
347,bratca,46.9285,22.6028,271.47,74,27,1.91,RO,1701711848
348,ambovombe,-25.1784,46.0877,295.38,78,0,10.2,MG,1701711849
349,concordia,45.7561,12.845,277.25,83,100,0.67,IT,1701711850
350,brokopondo,5.0568,-54.9767,307.18,37,45,1.37,SR,1701711851
351,palangkaraya,-2.2073,113.9164,296.14,97,62,0.72,ID,1701711851
352,machico,32.7229,-16.7659,294.68,91,75,8.23,PT,1701711852
353,viedma,-40.8084,-62.9947,299.68,10,0,5.44,AR,1701711853
354,barranca,-10.7541,-77.7609,295.04,70,66,4.95,PE,1701711854
355,clearwater,27.9659,-82.8001,297.27,76,40,5.14,US,1701711854
356,kargalinskaya,43.7438,46.4781,283.39,83,38,2.83,RU,1701711855
357,galle,51.4825,11.9705,272.12,77,0,5.66,DE,1701711856
358,ipueiras,-4.5427,-40.7168,309.19,29,91,4.91,BR,1701711856
359,simanggang,1.2376,111.4621,298.18,94,100,0.51,MY,1701711857
360,marica,-22.9059,-42.7926,302.86,82,66,3.97,BR,1701711857
361,cestos city,5.4522,-9.5817,300.73,78,71,3.52,LR,1701711858
362,iskateley,67.6762,53.1292,247.85,92,45,4.03,RU,1701711859
363,bel ombre,-4.6194,55.4113,300.78,78,40,2.06,SC,1701711859
364,alice springs,-23.6984,133.8813,292.9,64,0,2.06,AU,1701711860
365,mount gambier,-37.8247,140.782,284.59,98,98,1.19,AU,1701711861
366,bubaque,11.2997,-15.8335,301.57,67,7,5.44,GW,1701711861
367,palpa,-14.5337,-75.1852,303.91,32,100,4.53,PE,1701711862
368,naze,5.452,7.0567,304.88,66,65,2.38,NG,1701711863
369,kourou,5.1581,-52.6426,305.16,63,44,3.53,FR,1701711863
370,tromso,69.6516,18.9558,271.1,86,40,2.57,NO,1701711864
371,cidade velha,-1.4619,-48.5028,300.19,83,75,5.66,BR,1701711864
372,shangyu,30.0357,120.8641,279.16,91,49,1.86,CN,1701711865
373,callao,-12.0523,-77.1391,294.27,68,100,3.6,PE,1701711876
374,katsuura,35.1522,140.3207,285.09,58,69,2.22,JP,1701711876
375,yashan,30.8123,118.0189,280.94,60,0,1.82,CN,1701711877
376,mahabe,-22.3733,47.7414,294.5,86,49,1.05,MG,1701711878
377,kikwit,-5.0383,18.8178,295.45,94,51,0.86,CD,1701711878
378,xilin hot,43.9312,116.0789,266.17,77,16,4.57,CN,1701711879
379,yarmouth,52.6072,1.7315,278.68,89,100,7.48,GB,1701711879
380,sokoni,-3.4068,36.6782,293.63,78,97,2.64,TZ,1701711880
381,pariaman,-0.6264,100.1178,298.18,91,100,1.29,ID,1701711881
382,yaren,-0.5471,166.9164,300.89,77,99,8.55,NR,1701711881
383,buala,-8.1455,159.593,300.24,86,99,8.32,SB,1701711882
384,xinyi,22.4278,111.1033,287.6,89,99,1.58,CN,1701711883
385,la passe,46.2035,-1.4601,284.23,71,54,13.9,FR,1701711884
386,sezanne,48.7241,3.7223,281.2,94,100,8.69,FR,1701711884
387,acapulco de juarez,16.868,-99.894,302.0,65,100,1.93,MX,1701711886
388,al jawf,24.1985,23.2939,292.17,17,0,5.23,LY,1701711887
389,balikpapan,-1.2399,116.8593,300.12,89,20,1.54,ID,1701711887
390,cabedelo,-6.9732,-34.8352,304.53,69,76,4.29,BR,1701711888
391,lubang,13.8593,120.1228,300.92,78,9,6.48,PH,1701711889
392,kiunga,-6.116,141.2982,296.26,98,91,0.81,PG,1701711890
393,kalmunai,7.4132,81.8269,299.14,88,100,5.69,LK,1701711890
394,opuwo,-18.055,13.8387,297.56,59,91,3.54,NA,1701711891
395,el abiodh sidi cheikh,32.8965,0.5464,284.11,38,46,3.34,DZ,1701711891
396,sipalay,9.7491,122.4041,299.2,85,15,2.14,PH,1701711892
397,rudsar,37.1382,50.2928,285.15,49,4,2.35,IR,1701711893
398,paka,4.6369,103.436,299.11,94,47,0.0,MY,1701711893
399,ambon,47.5542,-2.5567,281.98,74,76,12.54,FR,1701711894
400,khark,29.2406,50.3117,295.9,50,10,5.58,IR,1701711895
401,thames,-37.138,175.5418,289.19,96,100,2.27,NZ,1701711895
402,amursk,50.2299,136.9015,261.98,99,93,0.21,RU,1701711896
403,sao jose da coroa grande,-8.8894,-35.1515,301.81,69,53,4.93,BR,1701711897
404,nebraska city,40.6765,-95.8587,276.16,75,0,2.06,US,1701711897
405,sao desiderio,-12.3572,-44.9769,306.39,34,100,1.96,BR,1701711898
406,sao joao batista,-27.2775,-48.8496,300.01,75,100,1.86,BR,1701711899
407,gao,16.2788,-0.0412,302.19,9,40,4.08,ML,1701711899
408,stephenville,32.2192,-98.2131,287.2,26,0,1.54,US,1701711900
409,tofol,5.326,163.0087,300.17,83,100,6.16,FM,1701711901
410,remire-montjoly,4.905,-52.2772,305.15,58,75,6.17,FR,1701711902
411,fort irwin,35.2627,-116.6846,280.89,57,0,1.54,US,1701711903
412,san ignacio,17.1528,-89.0762,302.14,74,75,0.0,BZ,1701711904
413,talnakh,69.494,88.3908,239.58,83,95,0.58,RU,1701711904
414,harstad,68.9297,16.5209,267.29,97,100,1.22,NO,1701711905
415,ridgecrest,35.6225,-117.6699,285.91,37,75,2.06,US,1701711906
416,argo,33.6882,-86.5014,289.35,45,2,1.79,US,1701711906
417,timoteo,-19.5771,-42.6436,306.56,46,50,1.82,BR,1701711907
418,mount pleasant,33.1571,-94.9694,287.06,35,0,3.6,US,1701711908
419,pimentel,39.4855,9.0655,286.3,76,75,2.06,IT,1701711909
420,bamboo flat,11.7126,92.7164,298.96,94,100,1.54,IN,1701711909
421,south hedland,-20.4088,118.5987,298.11,94,75,3.6,AU,1701711920
422,westport,41.1415,-73.3579,283.5,65,40,5.66,US,1701711818
423,fort bragg,35.1403,-79.1541,291.69,42,0,2.06,US,1701711921
424,saint-pierre,48.3833,7.4719,274.33,83,100,4.16,FR,1701711922
425,kangding,30.0014,101.9548,276.63,86,96,0.25,CN,1701711923
426,ahau,-12.501,177.0479,301.39,78,57,7.28,FJ,1701711923
427,santa cruz,28.4696,-16.2541,293.12,80,20,2.57,ES,1701711924
428,hamilton,43.2561,-79.8729,277.19,75,75,5.14,CA,1701711924
429,urangan,-25.2872,152.8981,296.82,87,0,4.97,AU,1701711925
430,astrakhan,46.3498,48.0326,283.63,87,40,1.0,RU,1701711926
431,paris,48.8589,2.32,282.47,93,100,6.17,FR,1701711927
432,ambalangoda,6.2389,80.0541,299.2,89,100,3.0,LK,1701711927
433,bria,45.82,-0.2492,282.83,86,75,8.23,FR,1701711928
434,khanskaya,44.674,39.9535,281.08,74,100,2.91,RU,1701711928
435,shalkar,47.8273,59.6159,279.91,76,100,6.03,KZ,1701711929
436,erdenet,49.0275,104.0448,265.29,58,12,5.68,MN,1701711930
437,bogale,16.1282,95.4507,298.18,75,34,1.7,MM,1701711930
438,bangassou,4.7435,22.8233,294.31,93,100,1.23,CF,1701711931
439,vanimo,-2.6848,141.3009,298.13,91,54,1.73,PG,1701711932
440,novaya ladoga,60.1052,32.3148,263.52,96,100,0.96,RU,1701711932
441,cambria,37.7814,-89.1192,281.05,87,100,5.14,US,1701711933
442,puerto deseado,-47.7516,-65.9013,290.13,45,12,7.31,AR,1701711934
443,holualoa,19.6238,-155.9536,294.08,73,20,2.06,US,1701711934
444,peterborough,52.5726,-0.2427,278.52,93,100,3.6,GB,1701711935
445,coeur d'alene,47.6743,-116.7812,274.63,96,100,3.6,US,1701711936
446,codrington,51.5082,-2.3937,277.58,97,100,1.34,GB,1701711936
447,namibe,-15.1951,12.1458,297.2,87,99,2.82,AO,1701711937
448,guerrero negro,27.971,-114.0364,294.89,33,1,0.32,MX,1701711938
449,whangarei,-35.7275,174.3166,289.77,98,100,1.07,NZ,1701711818
450,kuanda,56.3257,116.0827,255.72,95,100,0.65,RU,1701711939
451,northam,51.0506,-4.2113,281.04,88,100,10.75,GB,1701711939
452,rio grande,-53.7857,-67.7016,287.17,58,20,13.89,AR,1701711940
453,ziri,37.955,47.7819,279.28,19,88,3.19,IR,1701711941
454,vuktyl,63.8443,57.3002,259.87,95,100,2.68,RU,1701711941
455,maragogi,-9.0118,-35.2225,301.85,69,43,5.22,BR,1701711942
456,egilsstadir,65.262,-14.4035,260.09,92,40,3.6,IS,1701711943
457,zaragoza,41.6521,-0.8809,286.2,50,20,8.23,ES,1701711943
458,bardaskan,35.2611,57.9685,285.62,26,0,2.16,IR,1701711944
459,enoch,37.7733,-113.0244,279.29,56,0,2.57,US,1701711945
460,kisangani,0.5184,25.2057,294.09,96,83,1.05,CD,1701711945
461,tselinnoye,45.9041,34.1788,274.74,63,87,3.37,UA,1701711946
462,serhiyivka,48.0002,29.0733,270.87,65,2,0.79,UA,1701711947
463,qamdo,31.145,97.1699,275.44,54,62,1.22,CN,1701711947
464,chicoana,-25.1048,-65.5346,292.16,69,97,2.38,AR,1701711948
465,ghanzi,-21.6968,21.6457,304.65,11,28,4.27,BW,1701711950
466,tayu,9.2833,8.6167,298.74,30,67,2.06,NG,1701711951
467,puerto escondido,15.8693,-97.0726,303.54,57,90,2.85,MX,1701711961
468,xam nua,20.4152,104.0474,289.59,98,99,0.83,LA,1701711962
469,shiyan,32.6315,110.7928,283.19,74,6,2.11,CN,1701711963
470,pulgaon,20.7258,78.3176,295.29,66,99,3.1,IN,1701711963
471,gebeit,21.0667,36.3167,296.57,67,12,5.3,SD,1701711964
472,fort mcmurray,56.7292,-111.3885,270.88,86,0,4.12,CA,1701711965
473,nandgaon,27.711,77.3857,290.3,80,4,1.31,IN,1701711966
474,salahonda,2.0399,-78.6581,300.35,83,100,4.93,CO,1701711966
475,tidjikja,18.5545,-11.4326,301.1,14,50,3.98,MR,1701711967
476,borzya,50.3852,116.5331,259.15,94,93,3.34,RU,1701711968
477,dauphin,43.8982,5.783,277.51,96,100,1.66,FR,1701711969
478,coquimbo,-29.9532,-71.338,291.08,67,40,6.69,CL,1701711969
479,queenstown,-45.0322,168.661,281.59,73,0,0.96,NZ,1701711970
480,enriquillo,17.8989,-71.2338,302.97,56,23,5.47,DO,1701711971
481,leninskoye,54.473,69.1826,266.1,95,100,6.99,KZ,1701711971
482,nouadhibou,20.9127,-17.0503,296.11,60,0,7.2,MR,1701711972
483,berezovyy,52.8927,50.2243,268.0,89,59,6.05,RU,1701711973
484,nar'yan-mar,67.638,53.0071,247.9,92,50,4.07,RU,1701711973
485,nejdek,50.3248,12.7333,267.08,92,0,1.03,CZ,1701711974
486,banda aceh,5.5528,95.3193,299.31,87,97,2.93,ID,1701711975
487,kuytun,44.4245,84.9007,274.5,86,71,1.94,CN,1701711975
488,krasnyy kholm,58.0565,37.1147,263.56,96,100,3.1,RU,1701711976
489,kirakira,-10.4569,161.9202,299.0,94,100,5.25,SB,1701711976
490,arraial do cabo,-22.9663,-42.0244,303.09,66,40,4.12,BR,1701711977
491,safi,32.2651,-9.2306,290.8,62,98,1.28,MA,1701711978
492,homa bay,-0.5304,34.452,293.4,85,88,1.66,KE,1701711979
493,thohoyandou,-22.9676,30.4597,297.39,38,6,0.85,ZA,1701711979
494,sapucaia,-29.8197,-51.1609,293.18,87,75,6.17,BR,1701711980
495,roquetas de mar,36.763,-2.6116,287.96,78,100,1.87,ES,1701711981
496,kabala,34.526,69.1777,279.73,33,0,1.64,AF,1701711981
497,kimberley,-28.7383,24.7642,300.96,34,75,3.09,ZA,1701711982
498,coari,-4.0886,-63.1431,306.79,46,85,2.12,BR,1701711983
499,jaisalmer,26.9117,70.9125,292.73,27,0,3.45,IN,1701711983
500,san jose,37.3362,-121.8906,286.62,66,100,1.54,US,1701711984
501,al khums,14.1388,44.1408,291.28,55,42,1.09,YE,1701711985
502,khilok,51.3628,110.458,266.63,92,100,6.49,RU,1701711985
503,swift current,50.2849,-107.7984,271.6,93,100,6.17,CA,1701711986
504,kavieng,-2.5735,150.7952,300.7,77,100,1.6,PG,1701711987
505,bardai,21.355,17.0005,292.61,21,0,1.83,TD,1701711987
506,nogliki,51.7954,143.1365,266.59,86,96,0.89,RU,1701711988
507,el burgo de osma,41.5869,-3.0674,279.5,79,86,7.57,ES,1701711988
508,cockburn town,21.4608,-71.14,299.81,71,73,6.64,TC,1701711989
509,ballina,-28.8657,153.5659,293.22,83,56,2.0,AU,1701711990
510,nicoya,10.1488,-85.4533,303.42,63,56,5.15,CR,1701711990
511,meihekou,42.5358,125.6925,268.94,94,77,2.15,CN,1701711991
512,mazagao,-0.1161,-51.2862,304.18,65,79,2.94,BR,1701711992
513,razole,16.4764,81.8391,297.88,90,100,6.57,IN,1701711992
514,bakchar,57.0205,82.0669,249.12,96,54,1.53,RU,1701711993
515,corn island,32.4777,-80.8012,293.02,56,75,3.6,US,1701711994
516,extrema,-22.8549,-46.319,303.54,41,43,1.96,BR,1701712004
517,lewistown,47.0639,-109.4282,278.43,42,0,8.23,US,1701712005
518,geraldton,-28.7704,114.6147,293.24,77,92,5.14,AU,1701712005
519,saint croix,17.729,-64.759,304.92,58,20,7.72,US,1701712006
520,colchani,-20.3006,-66.9378,293.16,20,58,6.23,BO,1701712007
521,mejit,10.2843,170.8699,300.43,80,84,9.71,MH,1701712008
522,ghat,24.9626,10.1797,290.72,23,0,2.68,LY,1701712008
523,waingapu,-9.6522,120.2637,299.86,83,91,2.5,ID,1701712009
524,nadi,-17.7993,177.4179,297.15,83,20,2.57,FJ,1701712010
525,rathdrum,47.8112,-116.8969,274.47,97,100,3.6,US,1701712010
526,camocim,-2.901,-40.8427,303.58,63,100,7.86,BR,1701712011
527,massakory,12.9965,15.7349,303.32,11,76,4.19,TD,1701712012
528,palembang,-2.9888,104.7569,299.18,89,40,1.03,ID,1701712013
529,ba,29.4044,106.5368,285.85,85,44,1.15,CN,1701712013
